Partner,addresses,lon,lat,geoAddress
Youngcare,"Lot 100 Hortsman Circuit, Jordan Springs, NSW",150.7223672,-33.7290696,"hortsmann cct, jordan springs nsw 2747, australia"
Youngcare,"Lot 101 Hortsman Circuit, Jordan Springs, NSW",150.7223672,-33.7290696,"hortsmann cct, jordan springs nsw 2747, australia"
TBC,"59 Amor Street, Hornsby, NSW",151.1011145,-33.6860664,"59 amor st, hornsby nsw 2077, australia"
TBC,"4 The Third Avenue, Macquarie Fields, NSW",150.8847209,-33.9908996,"4 third ave, macquarie fields nsw 2564, australia"
TBC,"94 Ballandella Rd, Toongabbie, NSW",150.9555302,-33.7951842,"94 ballandella rd, toongabbie nsw 2146, australia"
Head Office,"267 Broadway, Glebe, NSW 2037",151.1931313,-33.8843047,"267 broadway, glebe nsw 2037, australia"
